Type,Category,share
Photo,2,17
Status,2,29
Photo,3,14
Photo,2,147
Photo,2,49
Status,2,33
Photo,3,27
Photo,3,14
Status,2,31
Photo,3,26
Status,2,19
Photo,2,18
Photo,2,14
Photo,2,10
Photo,2,20
Status,2,18
Photo,3,12
Photo,1,20
Status,3,17
Photo,3,8
Photo,2,12
Photo,1,0
Link,1,2
Photo,3,24
Status,2,19
Status,2,18
Status,2,72
Photo,3,17
Photo,2,63
Video,1,13
Photo,2,22
Photo,2,11
Photo,3,47
Photo,3,23
Photo,1,17
Photo,2,21
Photo,3,17
Photo,1,8
Status,2,31
Photo,1,14
Status,2,39
Link,1,18
Photo,1,3
Link,1,10
Photo,1,11
Link,1,10
Status,1,36
Link,1,8
Photo,1,15
Link,1,1
Photo,2,9
Photo,1,28
Photo,1,31
Photo,1,19
Photo,1,13
Video,1,14
Photo,1,54
Photo,1,13
Photo,1,11
Photo,1,17
Photo,1,14
Photo,1,10
Photo,1,13
Photo,1,22
Photo,1,7
Photo,1,23
Photo,1,7
Photo,1,70
Photo,1,17
Photo,1,28
Photo,1,9
Video,1,84
Status,3,44
Photo,1,47
Video,1,13
Photo,1,74
Photo,1,0
Photo,1,8
Photo,2,8
Photo,1,7
Status,2,13
Photo,3,53
Photo,1,57
Photo,3,19
Status,3,16
Photo,1,8
Link,1,31
Photo,3,38
Photo,1,6
Photo,1,17
Photo,1,77
Photo,2,13
Photo,3,32
Photo,3,16
Photo,2,22
Photo,3,27
Photo,1,11
Photo,2,26
Status,2,61
Photo,1,90
Photo,1,0
Photo,2,95
Photo,3,14
Photo,1,4
Photo,1,9
Photo,1,139
Photo,3,32
Status,2,28
Photo,3,16
Status,2,50
Photo,1,4
Photo,1,
Photo,2,18
Photo,2,16
Photo,1,2
Photo,1,2
Photo,1,26
Photo,1,0
Photo,1,2
Photo,1,2
Photo,1,
Status,2,40
Photo,1,2
Photo,1,2
Photo,1,
Photo,1,2
Photo,3,41
Photo,1,1
Photo,1,1
Photo,1,0
Photo,1,2
Photo,1,3
Photo,1,2
Photo,1,1
Photo,1,4
Photo,1,12
Link,1,16
Photo,1,3
Status,2,25
Photo,1,19
Link,1,44
Status,3,36
Status,2,90
Photo,3,60
Photo,1,9
Photo,1,14
Photo,3,15
Photo,3,14
Status,2,28
Link,1,11
Photo,1,41
Photo,2,32
Photo,2,49
Photo,1,25
Photo,2,55
Photo,2,16
Photo,2,30
Photo,3,21
Photo,2,35
Photo,2,13
Photo,3,40
Photo,2,32
Photo,3,98
Status,2,41
Photo,1,
Photo,2,19
Photo,1,5
Photo,3,64
Photo,1,208
Photo,2,16
Photo,3,26
Photo,1,6
Status,2,27
Photo,1,40
Photo,2,34
Status,2,22
Photo,3,98
Photo,1,40
Photo,2,42
Photo,2,36
Status,2,29
Photo,1,8
Photo,3,44
Video,1,121
Photo,2,11
Photo,1,10
Photo,2,35
Photo,2,6
Photo,3,12
Photo,2,15
Photo,3,15
Photo,3,43
Photo,2,7
Photo,2,17
Photo,1,42
Photo,2,43
Photo,1,7
Photo,2,7
Photo,1,2
Photo,3,102
Photo,2,25
Photo,1,5
Status,2,15
Photo,3,19
Photo,3,16
Photo,1,3
Photo,1,68
Photo,2,20
Photo,3,11
Photo,2,22
Photo,3,3
Photo,3,21
Photo,2,11
Photo,3,3
Photo,3,31
Photo,1,10
Photo,2,9
Status,2,1
Photo,1,10
Photo,3,28
Photo,2,8
Photo,3,27
Status,2,11
Status,2,54
Photo,1,21
Status,2,17
Photo,3,26
Photo,1,11
Photo,2,25
Photo,2,19
Photo,3,20
Photo,3,20
Status,2,1
Photo,1,10
Photo,2,21
Status,2,1
Photo,3,45
Photo,2,23
Photo,1,25
Photo,2,31
Photo,3,83
Photo,1,22
Status,2,79
Video,1,76
Photo,2,790
Photo,1,30
Photo,2,15
Photo,2,19
Photo,3,19
Photo,2,14
Photo,1,10
Photo,1,34
Photo,3,42
Status,2,51
Photo,3,58
Photo,2,8
Photo,1,32
Photo,1,10
Photo,2,26
Photo,3,41
Photo,2,15
Photo,1,43
Photo,2,16
Photo,2,9
Photo,3,60
Photo,3,10
Photo,1,24
Status,2,13
Photo,1,7
Photo,1,4
Photo,2,28
Photo,1,47
Photo,1,31
Photo,3,27
Photo,2,7
Status,2,14
Photo,3,5
Video,1,44
Photo,1,5
Photo,1,39
Photo,2,8
Photo,2,17
Status,2,13
Photo,1,4
Photo,1,12
Status,2,18
Photo,1,3
Photo,1,9
Photo,1,33
Photo,1,5
Photo,1,2
Photo,2,26
Photo,1,5
Photo,2,23
Photo,1,21
Photo,1,7
Photo,3,19
Photo,3,10
Photo,2,16
Photo,1,1
Photo,2,43
Photo,3,16
Photo,1,28
Photo,3,29
Photo,1,7
Photo,3,28
Photo,2,28
Photo,3,26
Photo,3,18
Photo,3,20
Photo,1,3
Photo,3,13
Photo,3,12
Photo,3,14
Photo,1,4
Photo,3,23
Photo,3,17
Photo,2,14
Photo,3,44
Photo,2,49
Photo,1,5
Photo,3,6
Photo,3,14
Photo,3,47
Photo,3,6
Photo,3,10
Photo,2,17
Photo,3,22
Photo,3,58
Photo,3,34
Photo,3,32
Photo,3,26
Photo,3,10
Photo,3,20
Status,2,10
Photo,2,37
Photo,3,9
Photo,3,16
Photo,3,44
Photo,1,58
Photo,3,36
Photo,3,17
Photo,2,33
Photo,3,29
Link,1,14
Photo,3,20
Photo,3,90
Photo,3,13
Photo,3,23
Photo,3,122
Photo,2,32
Photo,3,33
Status,1,39
Photo,3,25
Photo,2,18
Photo,1,38
Photo,3,16
Photo,2,40
Photo,2,29
Photo,3,54
Photo,1,24
Photo,3,18
Status,2,36
Photo,3,30
Photo,1,33
Photo,3,32
Photo,3,47
Photo,3,39
Photo,1,9
Photo,2,35
Photo,1,76
Status,2,123
Link,1,11
Photo,1,26
Photo,1,16
Photo,3,30
Photo,3,13
Photo,3,51
Photo,1,11
Photo,3,128
Photo,1,18
Photo,3,34
Photo,1,22
Photo,3,28
Photo,1,13
Photo,3,38
Photo,1,8
Photo,1,14
Photo,1,5
Photo,1,3
Photo,3,14
Photo,2,109
Photo,1,18
Photo,3,13
Photo,3,21
Photo,1,6
Photo,3,27
Photo,1,11
Photo,3,18
Photo,3,52
Photo,3,26
Photo,1,38
Photo,1,17
Link,1,40
Photo,3,24
Photo,3,26
Photo,3,25
Photo,3,9
Link,1,7
Photo,2,26
Photo,2,24
Photo,3,15
Photo,1,14
Photo,1,16
Photo,1,29
Photo,1,15
Status,1,6
Photo,1,0
Photo,1,11
Photo,1,14
Photo,1,13
Photo,1,7
Photo,1,0
Photo,1,3
Photo,1,6
Link,3,15
Photo,1,1
Photo,1,13
Photo,1,0
Photo,1,0
Link,1,0
Photo,1,0
Photo,1,1
Photo,1,14
Photo,1,1
Photo,1,4
Photo,1,0
Photo,1,13
Link,2,15
Photo,1,9
Photo,1,7
Photo,1,0
Photo,3,97
Photo,3,10
Photo,2,20
Photo,1,7
Photo,1,21
Photo,1,24
Photo,1,6
Photo,1,26
Photo,1,21
Photo,1,29
Photo,1,15
Photo,3,27
Photo,3,70
Photo,3,53
Photo,1,6
Photo,1,18
Photo,3,32
Photo,2,32
Photo,3,181
Photo,1,11
Photo,3,78
Photo,3,34
Photo,1,36
Photo,3,38
Photo,2,21
Photo,2,37
Photo,1,36
Photo,3,61
Link,1,13
Photo,3,57
Photo,1,15
Photo,3,42
Photo,1,13
Photo,3,19
Photo,1,47
Link,1,5
Photo,3,31
Photo,3,36
Photo,2,99
Link,1,2
Photo,3,36
Photo,2,26
Photo,3,24
Link,1,2
Photo,3,25
Photo,3,21
Photo,3,80
Photo,3,28
Photo,3,30
Photo,3,46
Link,1,9
Photo,3,55
Photo,3,41
Photo,3,26
Photo,2,22
Photo,1,18
Photo,3,38
Photo,2,28
